{
  "cafes": [
    {
      "sno":"1",
      "id": "jahgde7wgdiau8ewsahgosd",
      "name": "Bazaar Cafe",
      "street_no": "60H",
      "locality": "Solomos Island Road",
      "postal_code": "20688",
      "lat": "36.7783 N",
      "long": "119.4179 W"
    },
    {
      "sno":"2",
      "id": "12hydbdf76sljfts87sbfis",
      "name": "Ashley's Cafe",
      "street_no": "1B",
      "locality": "Macarthur Blvd",
      "postal_code": "20619",
      "lat": "38.1781 N",
      "long": "118.4171 W"
    },
    {
      "sno":"3",
      "id": "kjk234g4gcvfx8usg1l33pi",
      "name": "Avenue Cafe",
      "street_no": "45250",
      "locality": "Worth Avenue, Unit A",
      "postal_code": "20619",
      "lat": "36.1152",
      "long": "117.521"
    },
    {
      "sno":"4",
      "id": "saswe3s6yydtdr52hsd72yst",
      "name": "Hi-Lo Cafe",
      "street_no": "1X",
      "locality": "Macarthur Blvd",
      "postal_code": "20687",
      "lat": "36.7783",
      "long": "119.4179"
    },
    {
      "sno":"5",
      "id": "skjd86svvfdrsv55svbvf3f",
      "name": "California Chicken Cafe",
      "street_no": "7S",
      "locality": "Three Notch Road",
      "postal_code": "20619",
      "lat": "36.83",
      "long": "119.6"
    },
    {
      "sno":"6",
      "id": "asjdh8hftys0kght2yskyvy",
      "name": "Corner Bakery Cafe",
      "street_no": "1B",
      "locality": "Ambey Mantion",
      "postal_code": "29087",
      "lat": "31.21",
      "long": "119.7"
    },
    {
      "sno":"7",
      "id": "mjdhgetr4pojfyts22fzfsh",
      "name": "Philz Coffee",
      "street_no": "22803",
      "locality": "Gunston Dr Lexington Park",
      "postal_code": "20688",
      "lat": "35.7788",
      "long": "119.979"
    },
    {
      "sno":"8",
      "id": "urhw3837ehalod7w02b7835",
      "name": "The Alma Gathering Cafe",
      "street_no": "225",
      "locality": "Macarthur Blvd",
      "postal_code": "20687",
      "lat": "35.77813",
      "long": "119.41791"
    }
  ]
}